[
    {
        "id": 1,
        "address": "Ahlfeldstraße  2 ",
        "lng": 0,
        "lat": 0,
        "name": "Kita Ahlfeldstraße  2 ",
        "district": "Alt-West",
        "type": "Kindertagesstätte"
    },
    {
        "id": 2,
        "address": "Alte Straße 2 ",
        "lng": 12.34192,
        "lat": 51.3316,
        "name": "Kita Alte Straße 2 ",
        "district": "Südwest",
        "type": "Kindertagesstätte"
    },
    {
        "id": 3,
        "address": "Alte Thekalerstr. 13a ",
        "lng": 12.433440000000019,
        "lat": 51.37855,
        "name": "Kita Alte Thekalerstr. 13a ",
        "district": "Nordost",
        "type": "Kindertagesstätte"
    },
    {
        "id": 4,
        "address": "Altenburger Str.  3 ",
        "lng": 12.38368,
        "lat": 51.31795,
        "name": "Kita Altenburger Str.  3 ",
        "district": "Süd",
        "type": "Kindertagesstätte"
    },
    {
        "id": 5,
        "address": "Althener Anger  18 ",
        "lng": 12.51926,
        "lat": 51.33971,
        "name": "Kita Althener Anger  18 ",
        "district": "Ost",
        "type": "Kindertagesstätte"
    },
    {
        "id": 6,
        "address": "Althener Straße 18 ",
        "lng": 12.48493,
        "lat": 51.33368,
        "name": "Kita Althener Straße 18 ",
        "district": "Ost",
        "type": "Kindertagesstätte"
    },
    {
        "id": 7,
        "address": "Am Hohlweg 2 ",
        "lng": 12.30507,
        "lat": 51.38082,
        "name": "Kita Am Hohlweg 2 ",
        "district": "Nordwest",
        "type": "Kindertagesstätte"
    },
    {
        "id": 8,
        "address": "Am Kirschberg 39 ",
        "lng": 12.28225,
        "lat": 51.31854,
        "name": "Kita Am Kirschberg 39 ",
        "district": "West",
        "type": "Kindertagesstätte"
    },
    {
        "id": 9,
        "address": "Am Kirschberg  37 ",
        "lng": 12.282181400000013,
        "lat": 51.319375,
        "name": "Kita Am Kirschberg  37 ",
        "district": "West",
        "type": "Kindertagesstätte"
    },
    {
        "id": 10,
        "address": "Am Langen Felde 29 ",
        "lng": 12.31512,
        "lat": 51.343,
        "name": "Kita Am Langen Felde 29 ",
        "district": "Alt-West",
        "type": "Kindertagesstätte"
    },
    {
        "id": 11,
        "address": "Am langen Felde  8 ",
        "lng": 12.3163,
        "lat": 51.34537,
        "name": "Kita Am langen Felde  8 ",
        "district": "Alt-West",
        "type": "Kindertagesstätte"
    },
    {
        "id": 12,
        "address": "An der Hauptstraße 40 a",
        "lng": 12.44462,
        "lat": 51.42048,
        "name": "Kita An der Hauptstraße 40 a",
        "district": "Nord",
        "type": "Kindertagesstätte"
    },
    {
        "id": 13,
        "address": "An der Lehde 12 ",
        "lng": 12.32199,
        "lat": 51.3458,
        "name": "Kita An der Lehde 12 ",
        "district": "Alt-West",
        "type": "Kindertagesstätte"
    },
    {
        "id": 14,
        "address": "An der Lehde 14 ",
        "lng": 12.32218,
        "lat": 51.34556,
        "name": "Kita An der Lehde 14 ",
        "district": "Alt-West",
        "type": "Kindertagesstätte"
    },
    {
        "id": 15,
        "address": "An der Märchenwiese 3 ",
        "lng": 12.39306,
        "lat": 51.30574,
        "name": "Kita An der Märchenwiese 3 ",
        "district": "Süd",
        "type": "Kindertagesstätte"
    },
    {
        "id": 16,
        "address": "An der Querbreite 4 ",
        "lng": 12.3874,
        "lat": 51.37097,
        "name": "Kita An der Querbreite 4 ",
        "district": "Nord",
        "type": "Kindertagesstätte"
    },
    {
        "id": 17,
        "address": "An der Schule 1 ",
        "lng": 12.33347,
        "lat": 51.39204,
        "name": "Kita An der Schule 1 ",
        "district": "Nordwest",
        "type": "Kindertagesstätte"
    },
    {
        "id": 18,
        "address": "An der Tabaksmühle 30 ",
        "lng": 0,
        "lat": 0,
        "name": "Kita An der Tabaksmühle 30 ",
        "district": "Süd",
        "type": "Kindertagesstätte"
    },
    {
        "id": 19,
        "address": "An der Teichmühle 2 ",
        "lng": 12.25032,
        "lat": 51.34078,
        "name": "Kita An der Teichmühle 2 ",
        "district": "Alt-West",
        "type": "Kindertagesstätte"
    },
    {
        "id": 20,
        "address": "Arthur-Nagel-Straße 1 a/b",
        "lng": 12.323870400000033,
        "lat": 51.307364,
        "name": "Kita Arthur-Nagel-Straße 1 a/b",
        "district": "Südwest",
        "type": "Kindertagesstätte"
    },
    {
        "id": 21,
        "address": "Auenstraße 10 ",
        "lng": 12.2978,
        "lat": 51.35897,
        "name": "Kita Auenstraße 10 ",
        "district": "Alt-West",
        "type": "Kindertagesstätte"
    },
    {
        "id": 22,
        "address": "Bästleinstraße 18 ",
        "lng": 0,
        "lat": 0,
        "name": "Kita Bästleinstraße 18 ",
        "district": "Nordost",
        "type": "Kindertagesstätte"
    },
    {
        "id": 23,
        "address": "Bernburger Straße 22 ",
        "lng": 12.39214,
        "lat": 51.36438,
        "name": "Kita Bernburger Straße 22 ",
        "district": "Nord",
        "type": "Kindertagesstätte"
    },
    {
        "id": 24,
        "address": "Bertolt-Brecht-Straße 11 ",
        "lng": 12.42947,
        "lat": 51.35653,
        "name": "Kita Bertolt-Brecht-Straße 11 ",
        "district": "Nordost",
        "type": "Kindertagesstätte"
    },
    {
        "id": 25,
        "address": "Biedermannstraße 23 ",
        "lng": 12.37584,
        "lat": 51.30789,
        "name": "Kita Biedermannstraße 23 ",
        "district": "Süd",
        "type": "Kindertagesstätte"
    },
    {
        "id": 26,
        "address": "Bisamstraße 17 ",
        "lng": 12.4725052,
        "lat": 51.3566593,
        "name": "Kita Bisamstraße 17 ",
        "district": "Ost",
        "type": "Kindertagesstätte"
    },
    {
        "id": 27,
        "address": "Bockstraße 8 ",
        "lng": 12.42694,
        "lat": 51.30359,
        "name": "Kita Bockstraße 8 ",
        "district": "Südost",
        "type": "Kindertagesstätte"
    },
    {
        "id": 28,
        "address": "Bornaische Straße 184 ",
        "lng": 12.39239,
        "lat": 51.28732,
        "name": "Kita Bornaische Straße 184 ",
        "district": "Süd",
        "type": "Kindertagesstätte"
    },
    {
        "id": 29,
        "address": "Bornaische Straße 138 ",
        "lng": 12.38685,
        "lat": 51.29381,
        "name": "Kita Bornaische Straße 138 ",
        "district": "Süd",
        "type": "Kindertagesstätte"
    },
    {
        "id": 30,
        "address": "Bornaische Straße  186 c ",
        "lng": 12.39211,
        "lat": 51.28663,
        "name": "Kita Bornaische Straße  186 c ",
        "district": "Süd",
        "type": "Kindertagesstätte"
    },
    {
        "id": 31,
        "address": "Bothestraße 17/19 ",
        "lng": 12.35402,
        "lat": 51.36433,
        "name": "Kita Bothestraße 17/19 ",
        "district": "Nord",
        "type": "Kindertagesstätte"
    },
    {
        "id": 32,
        "address": "Brandiser Straße 20 ",
        "lng": 12.47453,
        "lat": 51.32294,
        "name": "Kita Brandiser Straße 20 ",
        "district": "Ost",
        "type": "Kindertagesstätte"
    },
    {
        "id": 33,
        "address": "Breisgaustraße 21 a",
        "lng": 12.292730000000006,
        "lat": 51.31778,
        "name": "Kita Breisgaustraße 21 a",
        "district": "West",
        "type": "Kindertagesstätte"
    },
    {
        "id": 34,
        "address": "Bremer Straße 17 ",
        "lng": 12.3648,
        "lat": 51.37699,
        "name": "Kita Bremer Straße 17 ",
        "district": "Nord",
        "type": "Kindertagesstätte"
    },
    {
        "id": 35,
        "address": "Bremer Weg 17 ",
        "lng": 12.36316,
        "lat": 51.38376,
        "name": "Kita Bremer Weg 17 ",
        "district": "Nord",
        "type": "Kindertagesstätte"
    },
    {
        "id": 36,
        "address": "Coppistraße 19 ",
        "lng": 12.38138,
        "lat": 51.36586,
        "name": "Kita Coppistraße 19 ",
        "district": "Nord",
        "type": "Kindertagesstätte"
    },
    {
        "id": 37,
        "address": "Dahlienstraße 75 ",
        "lng": 12.30432,
        "lat": 51.32433,
        "name": "Kita Dahlienstraße 75 ",
        "district": "West",
        "type": "Kindertagesstätte"
    },
    {
        "id": 38,
        "address": "Delitzscher Str. 141 ",
        "lng": 12.3788,
        "lat": 51.38466,
        "name": "Kita Delitzscher Str. 141 ",
        "district": "Nord",
        "type": "Kindertagesstätte"
    },
    {
        "id": 39,
        "address": "Demmeringstraße 35 ",
        "lng": 12.33009,
        "lat": 51.337,
        "name": "Kita Demmeringstraße 35 ",
        "district": "Alt-West",
        "type": "Kindertagesstätte"
    },
    {
        "id": 40,
        "address": "Demmeringstraße  18 ",
        "lng": 12.33419,
        "lat": 51.33838,
        "name": "Kita Demmeringstraße  18 ",
        "district": "Alt-West",
        "type": "Kindertagesstätte"
    },
    {
        "id": 41,
        "address": "Demmeringstraße 125 ",
        "lng": 12.31946,
        "lat": 51.33331,
        "name": "Kita Demmeringstraße 125 ",
        "district": "Alt-West",
        "type": "Kindertagesstätte"
    },
    {
        "id": 42,
        "address": "Diderotstraße 13 ",
        "lng": 12.34614,
        "lat": 51.37084,
        "name": "Kita Diderotstraße 13 ",
        "district": "Nordwest",
        "type": "Kindertagesstätte"
    },
    {
        "id": 43,
        "address": "Diezmannstraße 87a ",
        "lng": 12.31075,
        "lat": 51.31387,
        "name": "Kita Diezmannstraße 87a ",
        "district": "Südwest",
        "type": "Kindertagesstätte"
    },
    {
        "id": 44,
        "address": "Dölling Straße  21 ",
        "lng": 12.44851,
        "lat": 51.3482,
        "name": "Kita Dölling Straße  21 ",
        "district": "Ost",
        "type": "Kindertagesstätte"
    },
    {
        "id": 45,
        "address": "Dorfstraße 41 ",
        "lng": 12.51748,
        "lat": 51.30866,
        "name": "Kita Dorfstraße 41 ",
        "district": "Ost",
        "type": "Kindertagesstätte"
    },
    {
        "id": 46,
        "address": "Eduard-von-Hartmann-Straße 29/31 ",
        "lng": 12.3795,
        "lat": 51.37073,
        "name": "Kita Eduard-von-Hartmann-Straße 29/31 ",
        "district": "Nord",
        "type": "Kindertagesstätte"
    },
    {
        "id": 47,
        "address": "Eichlerstraße  10 ",
        "lng": 12.4012,
        "lat": 51.32794,
        "name": "Kita Eichlerstraße  10 ",
        "district": "Südost",
        "type": "Kindertagesstätte"
    },
    {
        "id": 48,
        "address": "Eisenacher Straße 38 ",
        "lng": 12.36438,
        "lat": 51.36155,
        "name": "Kita Eisenacher Straße 38 ",
        "district": "Nord",
        "type": "Kindertagesstätte"
    },
    {
        "id": 49,
        "address": "Eisenbahnstraße 52 ",
        "lng": 12.4024,
        "lat": 51.3458,
        "name": "Kita Eisenbahnstraße 52 ",
        "district": "Ost",
        "type": "Kindertagesstätte"
    },
    {
        "id": 50,
        "address": "Elsbethstraße 38 ",
        "lng": 12.36276,
        "lat": 51.36395,
        "name": "Kita Elsbethstraße 38 ",
        "district": "Nord",
        "type": "Kindertagesstätte"
    },
    {
        "id": 51,
        "address": "Enderststraße  32 ",
        "lng": 12.327857999999992,
        "lat": 51.3335036,
        "name": "Kita Enderststraße  32 ",
        "district": "Alt-West",
        "type": "Kindertagesstätte"
    },
    {
        "id": 52,
        "address": "Engelsdorfer Straße  279 ",
        "lng": 12.48326,
        "lat": 51.33456,
        "name": "Kita Engelsdorfer Straße  279 ",
        "district": "Ost",
        "type": "Kindertagesstätte"
    },
    {
        "id": 53,
        "address": "Engelsdorfer-Straße 130 ",
        "lng": 12.44532,
        "lat": 51.33171,
        "name": "Kita Engelsdorfer-Straße 130 ",
        "district": "Ost",
        "type": "Kindertagesstätte"
    },
    {
        "id": 54,
        "address": "Erhardstraße 6 ",
        "lng": 12.34272,
        "lat": 51.31826,
        "name": "Kita Erhardstraße 6 ",
        "district": "Südwest",
        "type": "Kindertagesstätte"
    },
    {
        "id": 55,
        "address": "Erich-Zeigner-Allee 77 a",
        "lng": 12.337130000000002,
        "lat": 51.32332,
        "name": "Kita Erich-Zeigner-Allee 77 a",
        "district": "Südwest",
        "type": "Kindertagesstätte"
    },
    {
        "id": 56,
        "address": "Erich-Zeigner-Allee 77 ",
        "lng": 12.33697,
        "lat": 51.32266,
        "name": "Kita Erich-Zeigner-Allee 77 ",
        "district": "Südwest",
        "type": "Kindertagesstätte"
    },
    {
        "id": 57,
        "address": "Ferdinand-Rhode-Straße 17 ",
        "lng": 12.36666,
        "lat": 51.33046,
        "name": "Kita Ferdinand-Rhode-Straße 17 ",
        "district": "Mitte",
        "type": "Kindertagesstätte"
    },
    {
        "id": 58,
        "address": "Ferdinand-Rhode-Straße 17 a",
        "lng": 12.36666,
        "lat": 51.33046,
        "name": "Kita Ferdinand-Rhode-Straße 17 a",
        "district": "Mitte",
        "type": "Kindertagesstätte"
    },
    {
        "id": 59,
        "address": "Freiodaer Weg 2 ",
        "lng": 12.27376,
        "lat": 51.385,
        "name": "Kita Freiodaer Weg 2 ",
        "district": "Nordwest",
        "type": "Kindertagesstätte"
    },
    {
        "id": 60,
        "address": "Friedrich-Bosse-Straße 19 ",
        "lng": 12.33437,
        "lat": 51.36985,
        "name": "Kita Friedrich-Bosse-Straße 19 ",
        "district": "Nordwest",
        "type": "Kindertagesstätte"
    },
    {
        "id": 61,
        "address": "Friedrich-Bosse-Straße 87a ",
        "lng": 12.32585,
        "lat": 51.37238,
        "name": "Kita Friedrich-Bosse-Straße 87a ",
        "district": "Nordwest",
        "type": "Kindertagesstätte"
    },
    {
        "id": 62,
        "address": "Friedrich-Ludwig-Jahn-Straße 5 ",
        "lng": 12.25071,
        "lat": 51.32732,
        "name": "Kita Friedrich-Ludwig-Jahn-Straße 5 ",
        "district": "West",
        "type": "Kindertagesstätte"
    },
    {
        "id": 63,
        "address": "Friedrichshafner Str. 21 ",
        "lng": 12.41791,
        "lat": 51.35412,
        "name": "Kita Friedrichshafner Str. 21 ",
        "district": "Nordost",
        "type": "Kindertagesstätte"
    },
    {
        "id": 64,
        "address": "Friedrichshafner Straße 25 ",
        "lng": 12.40708989999996,
        "lat": 51.3655051,
        "name": "Kita Friedrichshafner Straße 25 ",
        "district": "Nordost",
        "type": "Kindertagesstätte"
    },
    {
        "id": 65,
        "address": "Friedrichshafner Straße 147 ",
        "lng": 12.40502,
        "lat": 51.3774,
        "name": "Kita Friedrichshafner Straße 147 ",
        "district": "Nord",
        "type": "Kindertagesstätte"
    },
    {
        "id": 66,
        "address": "Frohburger Straße  33 D",
        "lng": 12.381160000000023,
        "lat": 51.31106,
        "name": "Kita Frohburger Straße  33 D",
        "district": "Süd",
        "type": "Kindertagesstätte"
    },
    {
        "id": 67,
        "address": "Gabelsbergerstraße 28 ",
        "lng": 12.3961148,
        "lat": 51.3393213,
        "name": "Kita Gabelsbergerstraße 28 ",
        "district": "Mitte",
        "type": "Kindertagesstätte"
    },
    {
        "id": 68,
        "address": "Garskestraße 17 ",
        "lng": 12.287789999999973,
        "lat": 51.32586,
        "name": "Kita Garskestraße 17 ",
        "district": "West",
        "type": "Kindertagesstätte"
    },
    {
        "id": 69,
        "address": "Georg-Große-Straße 1a ",
        "lng": 12.47863,
        "lat": 51.33472,
        "name": "Kita Georg-Große-Straße 1a ",
        "district": "Ost",
        "type": "Kindertagesstätte"
    },
    {
        "id": 70,
        "address": "Gerhard-Ellrodt-Straße 17 a",
        "lng": 12.32139,
        "lat": 51.29962,
        "name": "Kita Gerhard-Ellrodt-Straße 17 a",
        "district": "Südwest",
        "type": "Kindertagesstätte"
    },
    {
        "id": 71,
        "address": "Gersterstraße  9 ",
        "lng": 12.39014,
        "lat": 51.2949,
        "name": "Kita Gersterstraße  9 ",
        "district": "Süd",
        "type": "Kindertagesstätte"
    },
    {
        "id": 72,
        "address": "Gleisstraße 1 ",
        "lng": 0,
        "lat": 0,
        "name": "Kita Gleisstraße 1 ",
        "district": "Südwest",
        "type": "Kindertagesstätte"
    },
    {
        "id": 73,
        "address": "Goldsternstraße  21 a",
        "lng": 12.45573,
        "lat": 51.35554,
        "name": "Kita Goldsternstraße  21 a",
        "district": "Ost",
        "type": "Kindertagesstätte"
    },
    {
        "id": 74,
        "address": "Goldsternstraße 21 b",
        "lng": 12.45573,
        "lat": 51.35554,
        "name": "Kita Goldsternstraße 21 b",
        "district": "Ost",
        "type": "Kindertagesstätte"
    },
    {
        "id": 75,
        "address": "Goyastraße 8 ",
        "lng": 12.35638,
        "lat": 51.36279,
        "name": "Kita Goyastraße 8 ",
        "district": "Nordwest",
        "type": "Kindertagesstätte"
    },
    {
        "id": 76,
        "address": "Grünauer Allee 18 ",
        "lng": 12.30697,
        "lat": 51.31824,
        "name": "Kita Grünauer Allee 18 ",
        "district": "West",
        "type": "Kindertagesstätte"
    },
    {
        "id": 77,
        "address": "Grünauer Allee 18 a",
        "lng": 12.30697,
        "lat": 51.31824,
        "name": "Kita Grünauer Allee 18 a",
        "district": "West",
        "type": "Kindertagesstätte"
    },
    {
        "id": 78,
        "address": "Güldengossaer Straße 6 - 8 ",
        "lng": 12.45913,
        "lat": 51.28224,
        "name": "Kita Güldengossaer Straße 6 - 8 ",
        "district": "Südost",
        "type": "Kindertagesstätte"
    },
    {
        "id": 79,
        "address": "Gundermannstr. 16 ",
        "lng": 12.46307,
        "lat": 51.35132,
        "name": "Kita Gundermannstr. 16 ",
        "district": "Ost",
        "type": "Kindertagesstätte"
    },
    {
        "id": 80,
        "address": "Gundermannstr.  18 ",
        "lng": 0,
        "lat": 0,
        "name": "Kita Gundermannstr.  18 ",
        "district": "Nordost",
        "type": "Kindertagesstätte"
    },
    {
        "id": 81,
        "address": "Gustav-Freytag-Straße 33  a",
        "lng": 12.370840000000044,
        "lat": 51.31359,
        "name": "Kita Gustav-Freytag-Straße 33  a",
        "district": "Süd",
        "type": "Kindertagesstätte"
    },
    {
        "id": 82,
        "address": "Hannoversche Straße 52 ",
        "lng": 12.3735,
        "lat": 51.37438,
        "name": "Kita Hannoversche Straße 52 ",
        "district": "Nord",
        "type": "Kindertagesstätte"
    },
    {
        "id": 83,
        "address": "Hannoversche Straße 50 ",
        "lng": 12.37370999999996,
        "lat": 51.37497,
        "name": "Kita Hannoversche Straße 50 ",
        "district": "Nord",
        "type": "Kindertagesstätte"
    },
    {
        "id": 84,
        "address": "Hans-Beimler-Straße 17 ",
        "lng": 12.33556,
        "lat": 51.37235,
        "name": "Kita Hans-Beimler-Straße 17 ",
        "district": "Nordwest",
        "type": "Kindertagesstätte"
    },
    {
        "id": 85,
        "address": "Hans-Beimler-Straße 3 ",
        "lng": 12.33783,
        "lat": 51.37165,
        "name": "Kita Hans-Beimler-Straße 3 ",
        "district": "Nordwest",
        "type": "Kindertagesstätte"
    },
    {
        "id": 86,
        "address": "Hans-Marchwitza-Straße 10 ",
        "lng": 12.39935,
        "lat": 51.29975,
        "name": "Kita Hans-Marchwitza-Straße 10 ",
        "district": "Süd",
        "type": "Kindertagesstätte"
    },
    {
        "id": 87,
        "address": "Hans-Oster-Strasse 16 ",
        "lng": 0,
        "lat": 0,
        "name": "Kita Hans-Oster-Strasse 16 ",
        "district": "Nord",
        "type": "Kindertagesstätte"
    },
    {
        "id": 88,
        "address": "Hans-Otto-Straße 2 a",
        "lng": 12.39385,
        "lat": 51.30261,
        "name": "Kita Hans-Otto-Straße 2 a",
        "district": "Süd",
        "type": "Kindertagesstätte"
    },
    {
        "id": 89,
        "address": "Hans-Otto-Straße 2 b",
        "lng": 12.39385,
        "lat": 51.30261,
        "name": "Kita Hans-Otto-Straße 2 b",
        "district": "Süd",
        "type": "Kindertagesstätte"
    },
    {
        "id": 90,
        "address": "Haydnstraße  20 ",
        "lng": 12.3641725,
        "lat": 51.3293493,
        "name": "Kita Haydnstraße  20 ",
        "district": "Mitte",
        "type": "Kindertagesstätte"
    },
    {
        "id": 91,
        "address": "Heilemannstraße  19 ",
        "lng": 12.367339,
        "lat": 51.3119598,
        "name": "Kita Heilemannstraße  19 ",
        "district": "Süd",
        "type": "Kindertagesstätte"
    },
    {
        "id": 92,
        "address": "Herloßsohnstraße 20 ",
        "lng": 12.35509,
        "lat": 51.36017,
        "name": "Kita Herloßsohnstraße 20 ",
        "district": "Nord",
        "type": "Kindertagesstätte"
    },
    {
        "id": 93,
        "address": "Hermann-Liebmann-Straße 99 ",
        "lng": 12.406157,
        "lat": 51.3478263,
        "name": "Kita Hermann-Liebmann-Straße 99 ",
        "district": "Ost",
        "type": "Kindertagesstätte"
    },
    {
        "id": 94,
        "address": "Hohe Straße 21 ",
        "lng": 12.37647,
        "lat": 51.32914,
        "name": "Kita Hohe Straße 21 ",
        "district": "Mitte",
        "type": "Kindertagesstätte"
    },
    {
        "id": 95,
        "address": "Holsteinstraße 62/64 ",
        "lng": 12.40687,
        "lat": 51.32663,
        "name": "Kita Holsteinstraße 62/64 ",
        "district": "Südost",
        "type": "Kindertagesstätte"
    },
    {
        "id": 96,
        "address": "Holunderweg 38 ",
        "lng": 12.29138,
        "lat": 51.26826,
        "name": "Kita Holunderweg 38 ",
        "district": "Südwest",
        "type": "Kindertagesstätte"
    },
    {
        "id": 97,
        "address": "Holzhäuser Str. 15 ",
        "lng": 12.41134,
        "lat": 51.31933,
        "name": "Kita Holzhäuser Str. 15 ",
        "district": "Südost",
        "type": "Kindertagesstätte"
    },
    {
        "id": 98,
        "address": "Jadassohnstraße 2 ",
        "lng": 12.30724,
        "lat": 51.33464,
        "name": "Kita Jadassohnstraße 2 ",
        "district": "Alt-West",
        "type": "Kindertagesstätte"
    },
    {
        "id": 99,
        "address": "Jaspisstrasse 52 ",
        "lng": 12.48236,
        "lat": 51.33624,
        "name": "Kita Jaspisstrasse 52 ",
        "district": "Ost",
        "type": "Kindertagesstätte"
    },
    {
        "id": 100,
        "address": "Jörgen-Schmidtchen-Weg 4 ",
        "lng": 12.360522,
        "lat": 51.3799585,
        "name": "Kita Jörgen-Schmidtchen-Weg 4 ",
        "district": "Nord",
        "type": "Kindertagesstätte"
    },
    {
        "id": 101,
        "address": "Jörgen-Schmidtchen-Weg 6 ",
        "lng": 12.36111,
        "lat": 51.3799,
        "name": "Kita Jörgen-Schmidtchen-Weg 6 ",
        "district": "Nord",
        "type": "Kindertagesstätte"
    },
    {
        "id": 102,
        "address": "Jupiterstraße 37 ",
        "lng": 12.26919,
        "lat": 51.32058,
        "name": "Kita Jupiterstraße 37 ",
        "district": "West",
        "type": "Kindertagesstätte"
    },
    {
        "id": 103,
        "address": "Kändlerstraße 11 ",
        "lng": 12.26867,
        "lat": 51.31232,
        "name": "Kita Kändlerstraße 11 ",
        "district": "West",
        "type": "Kindertagesstätte"
    },
    {
        "id": 104,
        "address": "Kantatenweg 41 b",
        "lng": 12.33363,
        "lat": 51.31817,
        "name": "Kita Kantatenweg 41 b",
        "district": "Südwest",
        "type": "Kindertagesstätte"
    },
    {
        "id": 105,
        "address": "Kantatenweg 41 a",
        "lng": 12.33363,
        "lat": 51.31817,
        "name": "Kita Kantatenweg 41 a",
        "district": "Südwest",
        "type": "Kindertagesstätte"
    },
    {
        "id": 106,
        "address": "Kantor-Andrä-Straße  16 ",
        "lng": 12.2880642,
        "lat": 51.3543999,
        "name": "Kita Kantor-Andrä-Straße  16 ",
        "district": "Alt-West",
        "type": "Kindertagesstätte"
    },
    {
        "id": 107,
        "address": "Karl-Heine-Straße 34 ",
        "lng": 12.33762,
        "lat": 51.3326,
        "name": "Kita Karl-Heine-Straße 34 ",
        "district": "Südwest",
        "type": "Kindertagesstätte"
    },
    {
        "id": 108,
        "address": "Karl-Mannsfeld-Straße 7-8 ",
        "lng": 12.32173,
        "lat": 51.38709,
        "name": "Kita Karl-Mannsfeld-Straße 7-8 ",
        "district": "Nordwest",
        "type": "Kindertagesstätte"
    },
    {
        "id": 109,
        "address": "Kelbestraße  3 ",
        "lng": 12.45162,
        "lat": 51.32685,
        "name": "Kita Kelbestraße  3 ",
        "district": "Ost",
        "type": "Kindertagesstätte"
    },
    {
        "id": 110,
        "address": "Kleiststraße 12 ",
        "lng": 12.37957,
        "lat": 51.36465,
        "name": "Kita Kleiststraße 12 ",
        "district": "Nord",
        "type": "Kindertagesstätte"
    },
    {
        "id": 111,
        "address": "Knautnaundorfer Straße 4 f",
        "lng": 0,
        "lat": 0,
        "name": "Kita Knautnaundorfer Straße 4 f",
        "district": "Südwest",
        "type": "Kindertagesstätte"
    },
    {
        "id": 112,
        "address": "Koehlerstraße  7 ",
        "lng": 12.40365,
        "lat": 51.3396,
        "name": "Kita Koehlerstraße  7 ",
        "district": "Ost",
        "type": "Kindertagesstätte"
    },
    {
        "id": 113,
        "address": "Kohlgartenweg 3 ",
        "lng": 0,
        "lat": 0,
        "name": "Kita Kohlgartenweg 3 ",
        "district": "Ost",
        "type": "Kindertagesstätte"
    },
    {
        "id": 114,
        "address": "Königsteinstraße 70 ",
        "lng": 12.2652472,
        "lat": 51.3055427,
        "name": "Kita Königsteinstraße 70 ",
        "district": "West",
        "type": "Kindertagesstätte"
    },
    {
        "id": 115,
        "address": "Königsteinstraße 72 ",
        "lng": 12.26437,
        "lat": 51.3055,
        "name": "Kita Königsteinstraße 72 ",
        "district": "West",
        "type": "Kindertagesstätte"
    },
    {
        "id": 116,
        "address": "Könneritzstraße 47 ",
        "lng": 0,
        "lat": 0,
        "name": "Kita Könneritzstraße 47 ",
        "district": "Südwest",
        "type": "Kindertagesstätte"
    },
    {
        "id": 117,
        "address": "Konradstraße 70-72 ",
        "lng": 12.41173,
        "lat": 51.3442,
        "name": "Kita Konradstraße 70-72 ",
        "district": "Ost",
        "type": "Kindertagesstätte"
    },
    {
        "id": 118,
        "address": "Krönerstraße 43/45 ",
        "lng": 12.41636,
        "lat": 51.3397,
        "name": "Kita Krönerstraße 43/45 ",
        "district": "Ost",
        "type": "Kindertagesstätte"
    },
    {
        "id": 119,
        "address": "Kunzestraße 4 ",
        "lng": 12.3288,
        "lat": 51.30503,
        "name": "Kita Kunzestraße 4 ",
        "district": "Südwest",
        "type": "Kindertagesstätte"
    },
    {
        "id": 120,
        "address": "Kunzestraße 6 ",
        "lng": 12.32964,
        "lat": 51.30515,
        "name": "Kita Kunzestraße 6 ",
        "district": "Südwest",
        "type": "Kindertagesstätte"
    },
    {
        "id": 121,
        "address": "Kurt-Tucholsky-Straße 12 ",
        "lng": 12.40336000000002,
        "lat": 51.30185,
        "name": "Kita Kurt-Tucholsky-Straße 12 ",
        "district": "Südost",
        "type": "Kindertagesstätte"
    },
    {
        "id": 122,
        "address": "Lange Straße 23 ",
        "lng": 12.39353,
        "lat": 51.3416,
        "name": "Kita Lange Straße 23 ",
        "district": "Mitte",
        "type": "Kindertagesstätte"
    },
    {
        "id": 123,
        "address": "Leipziger Straße 21 ",
        "lng": 12.29866,
        "lat": 51.35613,
        "name": "Kita Leipziger Straße 21 ",
        "district": "Alt-West",
        "type": "Kindertagesstätte"
    },
    {
        "id": 124,
        "address": "Leonhard-Frank-Straße 24b ",
        "lng": 12.4292,
        "lat": 51.34931,
        "name": "Kita Leonhard-Frank-Straße 24b ",
        "district": "Ost",
        "type": "Kindertagesstätte"
    },
    {
        "id": 125,
        "address": "Lerchenrain 14-16 ",
        "lng": 12.40204,
        "lat": 51.30883,
        "name": "Kita Lerchenrain 14-16 ",
        "district": "Süd",
        "type": "Kindertagesstätte"
    },
    {
        "id": 126,
        "address": "Lichtenbergweg 3 ",
        "lng": 12.41096,
        "lat": 51.32024,
        "name": "Kita Lichtenbergweg 3 ",
        "district": "Südost",
        "type": "Kindertagesstätte"
    },
    {
        "id": 127,
        "address": "Liebigstraße 22 b ",
        "lng": 12.3897,
        "lat": 51.3312,
        "name": "Kita Liebigstraße 22 b ",
        "district": "Mitte",
        "type": "Kindertagesstätte"
    },
    {
        "id": 128,
        "address": "Lindenallee 3 a",
        "lng": 12.34059,
        "lat": 51.40378,
        "name": "Kita Lindenallee 3 a",
        "district": "Nordwest",
        "type": "Kindertagesstätte"
    },
    {
        "id": 129,
        "address": "Lindenstraße 54 ",
        "lng": 12.3788,
        "lat": 51.39743,
        "name": "Kita Lindenstraße 54 ",
        "district": "Nord",
        "type": "Kindertagesstätte"
    },
    {
        "id": 130,
        "address": "Linnéstraße 12 ",
        "lng": 12.39243,
        "lat": 51.32602,
        "name": "Kita Linnéstraße 12 ",
        "district": "Mitte",
        "type": "Kindertagesstätte"
    },
    {
        "id": 131,
        "address": "Lobstädter Str.  14 ",
        "lng": 12.38911,
        "lat": 51.29802,
        "name": "Kita Lobstädter Str.  14 ",
        "district": "Süd",
        "type": "Kindertagesstätte"
    },
    {
        "id": 132,
        "address": "Löhrstraße 9 ",
        "lng": 12.37322,
        "lat": 51.34571,
        "name": "Kita Löhrstraße 9 ",
        "district": "Mitte",
        "type": "Kindertagesstätte"
    },
    {
        "id": 133,
        "address": "Lößniger Straße 8 ",
        "lng": 12.380634099999952,
        "lat": 51.32551429999999,
        "name": "Kita Lößniger Straße 8 ",
        "district": "Mitte",
        "type": "Kindertagesstätte"
    },
    {
        "id": 134,
        "address": "Louis-Fürnberg-Straße 19 ",
        "lng": 12.42648,
        "lat": 51.34855,
        "name": "Kita Louis-Fürnberg-Straße 19 ",
        "district": "Südost",
        "type": "Kindertagesstätte"
    },
    {
        "id": 135,
        "address": "Louis-Fürnberg-Straße 21 ",
        "lng": 12.42658,
        "lat": 51.34847,
        "name": "Kita Louis-Fürnberg-Straße 21 ",
        "district": "Südost",
        "type": "Kindertagesstätte"
    },
    {
        "id": 136,
        "address": "Marschnerstraße 21 ",
        "lng": 12.35606,
        "lat": 51.33669,
        "name": "Kita Marschnerstraße 21 ",
        "district": "Mitte",
        "type": "Kindertagesstätte"
    },
    {
        "id": 137,
        "address": "Meininger Ring 41 ",
        "lng": 12.26894,
        "lat": 51.31947,
        "name": "Kita Meininger Ring 41 ",
        "district": "Nordwest",
        "type": "Kindertagesstätte"
    },
    {
        "id": 138,
        "address": "Meusdorfer Straße 47 b",
        "lng": 12.3784411,
        "lat": 51.3057709,
        "name": "Kita Meusdorfer Straße 47 b",
        "district": "Süd",
        "type": "Kindertagesstätte"
    },
    {
        "id": 139,
        "address": "Mothesstraße 2 ",
        "lng": 12.38379,
        "lat": 51.37316,
        "name": "Kita Mothesstraße 2 ",
        "district": "Nord",
        "type": "Kindertagesstätte"
    },
    {
        "id": 140,
        "address": "Naunhofer Straße 31 ",
        "lng": 12.41496,
        "lat": 51.31691,
        "name": "Kita Naunhofer Straße 31 ",
        "district": "Südost",
        "type": "Kindertagesstätte"
    },
    {
        "id": 141,
        "address": "Neptunweg  29a ",
        "lng": 12.2691,
        "lat": 51.32442,
        "name": "Kita Neptunweg  29a ",
        "district": "West",
        "type": "Kindertagesstätte"
    },
    {
        "id": 142,
        "address": "Neue Leipziger Straße 37 a",
        "lng": 12.26542,
        "lat": 51.31985,
        "name": "Kita Neue Leipziger Straße 37 a",
        "district": "West",
        "type": "Kindertagesstätte"
    },
    {
        "id": 143,
        "address": "Neue Leipziger Straße 39 a",
        "lng": 12.26482999999996,
        "lat": 51.32024000000001,
        "name": "Kita Neue Leipziger Straße 39 a",
        "district": "West",
        "type": "Kindertagesstätte"
    },
    {
        "id": 144,
        "address": "Nordplatz 14 ",
        "lng": 12.374685,
        "lat": 51.3530614,
        "name": "Kita Nordplatz 14 ",
        "district": "Mitte",
        "type": "Kindertagesstätte"
    },
    {
        "id": 145,
        "address": "Nordstraße 43 a/b",
        "lng": 12.3739,
        "lat": 51.35002,
        "name": "Kita Nordstraße 43 a/b",
        "district": "Mitte",
        "type": "Kindertagesstätte"
    },
    {
        "id": 146,
        "address": "Nordweg  9 ",
        "lng": 12.37535,
        "lat": 51.39477,
        "name": "Kita Nordweg  9 ",
        "district": "Nord",
        "type": "Kindertagesstätte"
    },
    {
        "id": 147,
        "address": "Odermannstraße 4 ",
        "lng": 12.33249,
        "lat": 51.3373,
        "name": "Kita Odermannstraße 4 ",
        "district": "Alt-West",
        "type": "Kindertagesstätte"
    },
    {
        "id": 148,
        "address": "Oststraße  128 ",
        "lng": 12.418378800000028,
        "lat": 51.3273603,
        "name": "Kita Oststraße  128 ",
        "district": "Südost",
        "type": "Kindertagesstätte"
    },
    {
        "id": 149,
        "address": "Oststraße 185 ",
        "lng": 12.42175,
        "lat": 51.32342,
        "name": "Kita Oststraße 185 ",
        "district": "Südost",
        "type": "Kindertagesstätte"
    },
    {
        "id": 150,
        "address": "Palmstraße 4 ",
        "lng": 12.41173,
        "lat": 51.32921,
        "name": "Kita Palmstraße 4 ",
        "district": "Südost",
        "type": "Kindertagesstätte"
    },
    {
        "id": 151,
        "address": "Paul-List-Straße 11 c ",
        "lng": 0,
        "lat": 0,
        "name": "Kita Paul-List-Straße 11 c ",
        "district": "Mitte",
        "type": "Kindertagesstätte"
    },
    {
        "id": 152,
        "address": "Paul-Michael-Str. 15 ",
        "lng": 12.3148,
        "lat": 51.35303,
        "name": "Kita Paul-Michael-Str. 15 ",
        "district": "Alt-West",
        "type": "Kindertagesstätte"
    },
    {
        "id": 153,
        "address": "Pistorisstraße 10 ",
        "lng": 12.34227,
        "lat": 51.31567,
        "name": "Kita Pistorisstraße 10 ",
        "district": "Südwest",
        "type": "Kindertagesstätte"
    },
    {
        "id": 154,
        "address": "Platnerstraße 11 ",
        "lng": 12.360733100000061,
        "lat": 51.3587892,
        "name": "Kita Platnerstraße 11 ",
        "district": "Nord",
        "type": "Kindertagesstätte"
    },
    {
        "id": 155,
        "address": "Poetenweg 22 ",
        "lng": 12.36595,
        "lat": 51.35654,
        "name": "Kita Poetenweg 22 ",
        "district": "Nord",
        "type": "Kindertagesstätte"
    },
    {
        "id": 156,
        "address": "Poserstraße 55 ",
        "lng": 12.42545,
        "lat": 51.35373,
        "name": "Kita Poserstraße 55 ",
        "district": "Nordost",
        "type": "Kindertagesstätte"
    },
    {
        "id": 157,
        "address": "Prager Straße 224 ",
        "lng": 12.42099,
        "lat": 51.30781,
        "name": "Kita Prager Straße 224 ",
        "district": "Südost",
        "type": "Kindertagesstätte"
    },
    {
        "id": 158,
        "address": "Raschwitzer Str. 4 ",
        "lng": 12.383675400000016,
        "lat": 51.2950144,
        "name": "Kita Raschwitzer Str. 4 ",
        "district": "Süd",
        "type": "Kindertagesstätte"
    },
    {
        "id": 159,
        "address": "Raschwitzer Straße 15 ",
        "lng": 12.38396,
        "lat": 51.29487,
        "name": "Kita Raschwitzer Straße 15 ",
        "district": "Süd",
        "type": "Kindertagesstätte"
    },
    {
        "id": 160,
        "address": "Rathenaustraße 21 ",
        "lng": 12.31444,
        "lat": 51.35497,
        "name": "Kita Rathenaustraße 21 ",
        "district": "Alt-West",
        "type": "Kindertagesstätte"
    },
    {
        "id": 161,
        "address": "Reichelstr. 3 ",
        "lng": 12.3679181,
        "lat": 51.3375476,
        "name": "Kita Reichelstr. 3 ",
        "district": "Mitte",
        "type": "Kindertagesstätte"
    },
    {
        "id": 162,
        "address": "Reichelstraße 3-5 ",
        "lng": 12.3679181,
        "lat": 51.3375476,
        "name": "Kita Reichelstraße 3-5 ",
        "district": "Mitte",
        "type": "Kindertagesstätte"
    },
    {
        "id": 163,
        "address": "Richard-Lehmann-Str. 30 A",
        "lng": 12.37092,
        "lat": 51.31449,
        "name": "Kita Richard-Lehmann-Str. 30 A",
        "district": "Süd",
        "type": "Kindertagesstätte"
    },
    {
        "id": 164,
        "address": "Rietschelstraße 12 ",
        "lng": 12.33283,
        "lat": 51.33959,
        "name": "Kita Rietschelstraße 12 ",
        "district": "Alt-West",
        "type": "Kindertagesstätte"
    },
    {
        "id": 165,
        "address": "Rietschelstraße 52 ",
        "lng": 12.324687900000072,
        "lat": 51.3455582,
        "name": "Kita Rietschelstraße 52 ",
        "district": "Alt-West",
        "type": "Kindertagesstätte"
    },
    {
        "id": 166,
        "address": "Ringstraße  213 ",
        "lng": 12.29386,
        "lat": 51.31569,
        "name": "Kita Ringstraße  213 ",
        "district": "West",
        "type": "Kindertagesstätte"
    },
    {
        "id": 167,
        "address": "Roßmarktstraße 6 ",
        "lng": 0,
        "lat": 0,
        "name": "Kita Roßmarktstraße 6 ",
        "district": "Alt-West",
        "type": "Kindertagesstätte"
    },
    {
        "id": 168,
        "address": "Rudolph-Sack-Straße 12 ",
        "lng": 0,
        "lat": 0,
        "name": "Kita Rudolph-Sack-Straße 12 ",
        "district": "Südwest",
        "type": "Kindertagesstätte"
    },
    {
        "id": 169,
        "address": "Russenstraße 135 ",
        "lng": 12.44936,
        "lat": 51.30413,
        "name": "Kita Russenstraße 135 ",
        "district": "Südost",
        "type": "Kindertagesstätte"
    },
    {
        "id": 170,
        "address": "Salomonstraße 10 ",
        "lng": 12.390867299999968,
        "lat": 51.3397203,
        "name": "Kita Salomonstraße 10 ",
        "district": "Mitte",
        "type": "Kindertagesstätte"
    },
    {
        "id": 171,
        "address": "Samuel-Lampel-Straße 2 ",
        "lng": 12.42013,
        "lat": 51.37754,
        "name": "Kita Samuel-Lampel-Straße 2 ",
        "district": "Nordost",
        "type": "Kindertagesstätte"
    },
    {
        "id": 172,
        "address": "Schenkendorfstraße 30 ",
        "lng": 12.37464,
        "lat": 51.32415,
        "name": "Kita Schenkendorfstraße 30 ",
        "district": "Süd",
        "type": "Kindertagesstätte"
    },
    {
        "id": 173,
        "address": "Schenkendorfstraße 10 ",
        "lng": 12.3712593,
        "lat": 51.3243465,
        "name": "Kita Schenkendorfstraße 10 ",
        "district": "Süd",
        "type": "Kindertagesstätte"
    },
    {
        "id": 174,
        "address": "Schönauer Ring 23 ",
        "lng": 12.28691,
        "lat": 51.32838,
        "name": "Kita Schönauer Ring 23 ",
        "district": "West",
        "type": "Kindertagesstätte"
    },
    {
        "id": 175,
        "address": "Schönbachstraße 63 ",
        "lng": 12.4131,
        "lat": 51.3222,
        "name": "Kita Schönbachstraße 63 ",
        "district": "Südost",
        "type": "Kindertagesstätte"
    },
    {
        "id": 176,
        "address": "Schönefelder Allee 23 a",
        "lng": 12.40533,
        "lat": 51.35729,
        "name": "Kita Schönefelder Allee 23 a",
        "district": "Nordost",
        "type": "Kindertagesstätte"
    },
    {
        "id": 177,
        "address": "Schröderstraße 1 ",
        "lng": 12.2634,
        "lat": 51.35661,
        "name": "Kita Schröderstraße 1 ",
        "district": "Alt-West",
        "type": "Kindertagesstätte"
    },
    {
        "id": 178,
        "address": "Schulzeweg 11 ",
        "lng": 12.41743,
        "lat": 51.35322,
        "name": "Kita Schulzeweg 11 ",
        "district": "Nordost",
        "type": "Kindertagesstätte"
    },
    {
        "id": 179,
        "address": "Schützstraße 2 ",
        "lng": 12.32063,
        "lat": 51.35304,
        "name": "Kita Schützstraße 2 ",
        "district": "Alt-West",
        "type": "Kindertagesstätte"
    },
    {
        "id": 180,
        "address": "Sebastian-Bach-Straße 1 a",
        "lng": 12.36131,
        "lat": 51.33705,
        "name": "Kita Sebastian-Bach-Straße 1 a",
        "district": "Mitte",
        "type": "Kindertagesstätte"
    },
    {
        "id": 181,
        "address": "Seidelstraße 1/3 ",
        "lng": 12.431069999999977,
        "lat": 51.2977571,
        "name": "Kita Seidelstraße 1/3 ",
        "district": "Südost",
        "type": "Kindertagesstätte"
    },
    {
        "id": 182,
        "address": "Seipelweg 16 b",
        "lng": 12.41791,
        "lat": 51.35412,
        "name": "Kita Seipelweg 16 b",
        "district": "Nordost",
        "type": "Kindertagesstätte"
    },
    {
        "id": 183,
        "address": "Seitengasse 2 ",
        "lng": 12.38543,
        "lat": 51.36754,
        "name": "Kita Seitengasse 2 ",
        "district": "Nord",
        "type": "Kindertagesstätte"
    },
    {
        "id": 184,
        "address": "Seumestraße 99 ",
        "lng": 12.3118,
        "lat": 51.27823,
        "name": "Kita Seumestraße 99 ",
        "district": "Südwest",
        "type": "Kindertagesstätte"
    },
    {
        "id": 185,
        "address": "Sommerfelder Straße 29 ",
        "lng": 12.4275,
        "lat": 51.32093,
        "name": "Kita Sommerfelder Straße 29 ",
        "district": "Südost",
        "type": "Kindertagesstätte"
    },
    {
        "id": 186,
        "address": "Sophie-Scholl-Straße 6 ",
        "lng": 12.43892,
        "lat": 51.32677,
        "name": "Kita Sophie-Scholl-Straße 6 ",
        "district": "Ost",
        "type": "Kindertagesstätte"
    },
    {
        "id": 187,
        "address": "Spinnereistraße 8 ",
        "lng": 12.31809,
        "lat": 51.3272,
        "name": "Kita Spinnereistraße 8 ",
        "district": "Alt-West",
        "type": "Kindertagesstätte"
    },
    {
        "id": 188,
        "address": "Spinnereistraße 10 ",
        "lng": 12.31771,
        "lat": 51.32771,
        "name": "Kita Spinnereistraße 10 ",
        "district": "Alt-West",
        "type": "Kindertagesstätte"
    },
    {
        "id": 189,
        "address": "Spittastraße 7 ",
        "lng": 12.3251,
        "lat": 51.34019,
        "name": "Kita Spittastraße 7 ",
        "district": "Alt-West",
        "type": "Kindertagesstätte"
    },
    {
        "id": 190,
        "address": "Sternwartenstraße 30 a/b",
        "lng": 12.38492,
        "lat": 51.33369,
        "name": "Kita Sternwartenstraße 30 a/b",
        "district": "Mitte",
        "type": "Kindertagesstätte"
    },
    {
        "id": 191,
        "address": "Stollberger Straße 8 ",
        "lng": 12.43344,
        "lat": 51.37855,
        "name": "Kita Stollberger Straße 8 ",
        "district": "Nordost",
        "type": "Kindertagesstätte"
    },
    {
        "id": 192,
        "address": "Stötteritzer Straße 1 ",
        "lng": 12.40032,
        "lat": 51.32931,
        "name": "Kita Stötteritzer Straße 1 ",
        "district": "Südost",
        "type": "Kindertagesstätte"
    },
    {
        "id": 193,
        "address": "Südblick 5 ",
        "lng": 12.45565,
        "lat": 51.35113,
        "name": "Kita Südblick 5 ",
        "district": "Südost",
        "type": "Kindertagesstätte"
    },
    {
        "id": 194,
        "address": "Tarostraße 7 ",
        "lng": 12.38702,
        "lat": 51.32428,
        "name": "Kita Tarostraße 7 ",
        "district": "Mitte",
        "type": "Kindertagesstätte"
    },
    {
        "id": 195,
        "address": "Tarostraße 9 ",
        "lng": 12.3874,
        "lat": 51.32471,
        "name": "Kita Tarostraße 9 ",
        "district": "Mitte",
        "type": "Kindertagesstätte"
    },
    {
        "id": 196,
        "address": "Tarostraße 17-19 ",
        "lng": 12.388308,
        "lat": 51.323277,
        "name": "Kita Tarostraße 17-19 ",
        "district": "Mitte",
        "type": "Kindertagesstätte"
    },
    {
        "id": 197,
        "address": "Täubchenweg 30 ",
        "lng": 12.40165,
        "lat": 51.33566,
        "name": "Kita Täubchenweg 30 ",
        "district": "Südost",
        "type": "Kindertagesstätte"
    },
    {
        "id": 198,
        "address": "Theodor-Neubauer-Straße 18 ",
        "lng": 12.4135,
        "lat": 51.33533,
        "name": "Kita Theodor-Neubauer-Straße 18 ",
        "district": "Ost",
        "type": "Kindertagesstätte"
    },
    {
        "id": 199,
        "address": "Thietmarstraße 13 ",
        "lng": 0,
        "lat": 0,
        "name": "Kita Thietmarstraße 13 ",
        "district": "Alt-West",
        "type": "Kindertagesstätte"
    },
    {
        "id": 200,
        "address": "Thünenstraße 2 ",
        "lng": 12.39481,
        "lat": 51.36912,
        "name": "Kita Thünenstraße 2 ",
        "district": "Nord",
        "type": "Kindertagesstätte"
    },
    {
        "id": 201,
        "address": "Tschaikowskistrasse 28 ",
        "lng": 12.3603,
        "lat": 51.3462,
        "name": "Kita Tschaikowskistrasse 28 ",
        "district": "Mitte",
        "type": "Kindertagesstätte"
    },
    {
        "id": 202,
        "address": "Vollhardtstraße 16 ",
        "lng": 12.38815,
        "lat": 51.28914,
        "name": "Kita Vollhardtstraße 16 ",
        "district": "Süd",
        "type": "Kindertagesstätte"
    },
    {
        "id": 203,
        "address": "Waldkerbelstraße 2 ",
        "lng": 12.4594,
        "lat": 51.35869,
        "name": "Kita Waldkerbelstraße 2 ",
        "district": "Ost",
        "type": "Kindertagesstätte"
    },
    {
        "id": 204,
        "address": "Waldrebenweg 9 ",
        "lng": 12.483098,
        "lat": 51.3487367,
        "name": "Kita Waldrebenweg 9 ",
        "district": "Ost",
        "type": "Kindertagesstätte"
    },
    {
        "id": 205,
        "address": "Walter-Heinze-Straße 22 ",
        "lng": 12.33503,
        "lat": 51.33027,
        "name": "Kita Walter-Heinze-Straße 22 ",
        "district": "Südwest",
        "type": "Kindertagesstätte"
    },
    {
        "id": 206,
        "address": "Weißdornstraße  2 ",
        "lng": 12.29445,
        "lat": 51.32182,
        "name": "Kita Weißdornstraße  2 ",
        "district": "West",
        "type": "Kindertagesstätte"
    },
    {
        "id": 207,
        "address": "Wiesenstraße 18 ",
        "lng": 12.46526,
        "lat": 51.35638,
        "name": "Kita Wiesenstraße 18 ",
        "district": "Ost",
        "type": "Kindertagesstätte"
    },
    {
        "id": 208,
        "address": "Wilhelm-Sammet-Str. 4 ",
        "lng": 12.38072,
        "lat": 51.36188,
        "name": "Kita Wilhelm-Sammet-Str. 4 ",
        "district": "Nord",
        "type": "Kindertagesstätte"
    },
    {
        "id": 209,
        "address": "William-Zipperer-Straße 149 ",
        "lng": 12.31317,
        "lat": 51.34889,
        "name": "Kita William-Zipperer-Straße 149 ",
        "district": "Alt-West",
        "type": "Kindertagesstätte"
    },
    {
        "id": 210,
        "address": "Willmar-Schwabe-Straße 4 ",
        "lng": 12.35762,
        "lat": 51.34168,
        "name": "Kita Willmar-Schwabe-Straße 4 ",
        "district": "Mitte",
        "type": "Kindertagesstätte"
    },
    {
        "id": 211,
        "address": "Windscheidstraße 32 ",
        "lng": 12.36868,
        "lat": 51.31087,
        "name": "Kita Windscheidstraße 32 ",
        "district": "Süd",
        "type": "Kindertagesstätte"
    },
    {
        "id": 212,
        "address": "Wurzner Straße 122 ",
        "lng": 12.4182128,
        "lat": 51.3438316,
        "name": "Kita Wurzner Straße 122 ",
        "district": "Ost",
        "type": "Kindertagesstätte"
    },
    {
        "id": 213,
        "address": "Yorckstraße  43 b",
        "lng": 12.34357,
        "lat": 51.37001,
        "name": "Kita Yorckstraße  43 b",
        "district": "Nordwest",
        "type": "Kindertagesstätte"
    },
    {
        "id": 214,
        "address": "Yorckstraße  43 a",
        "lng": 12.34357,
        "lat": 51.37001,
        "name": "Kita Yorckstraße  43 a",
        "district": "Nordwest",
        "type": "Kindertagesstätte"
    },
    {
        "id": 215,
        "address": "Zeumer Straße 5 ",
        "lng": 12.4072,
        "lat": 51.35799,
        "name": "Kita Zeumer Straße 5 ",
        "district": "Ost",
        "type": "Kindertagesstätte"
    },
    {
        "id": 216,
        "address": "Zeumerstraße 1 ",
        "lng": 12.40607,
        "lat": 51.35943,
        "name": "Kita Zeumerstraße 1 ",
        "district": "Nordost",
        "type": "Kindertagesstätte"
    },
    {
        "id": 217,
        "address": "Zingster Straße 02 ",
        "lng": 12.2599238,
        "lat": 51.3106625,
        "name": "Kita Zingster Straße 02 ",
        "district": "West",
        "type": "Kindertagesstätte"
    },
    {
        "id": 218,
        "address": "Zittauer Straße 2 a",
        "lng": 12.41429,
        "lat": 51.35575,
        "name": "Kita Zittauer Straße 2 a",
        "district": "Nordost",
        "type": "Kindertagesstätte"
    },
    {
        "id": 219,
        "address": "Zum Kleingartenpark  15 ",
        "lng": 12.423459999999977,
        "lat": 51.34256,
        "name": "Kita Zum Kleingartenpark  15 ",
        "district": "Ost",
        "type": "Kindertagesstätte"
    },
    {
        "id": 220,
        "address": "Zur Schule  10 ",
        "lng": 12.372747,
        "lat": 51.3933745,
        "name": "Kita Zur Schule  10 ",
        "district": "Nord",
        "type": "Kindertagesstätte"
    },
    {
        "id": 221,
        "address": "Zweinauendorfer Straße 167 ",
        "lng": 12.44172,
        "lat": 51.32713,
        "name": "Kita Zweinauendorfer Straße 167 ",
        "district": "Ost",
        "type": "Kindertagesstätte"
    },
    {
        "id": 222,
        "address": "  ",
        "lng": 0,
        "lat": 0,
        "name": "1",
        "district": "Nordost",
        "type": "Tagesmutter"
    },
    {
        "id": 223,
        "address": "  ",
        "lng": 0,
        "lat": 0,
        "name": "2",
        "district": "Nordost",
        "type": "Tagesmutter"
    },
    {
        "id": 224,
        "address": "  ",
        "lng": 0,
        "lat": 0,
        "name": "3",
        "district": "Nordost",
        "type": "Tagesmutter"
    },
    {
        "id": 225,
        "address": "  ",
        "lng": 0,
        "lat": 0,
        "name": "BBW-TPP16",
        "district": "Südost",
        "type": "Tagesmutter"
    },
    {
        "id": 226,
        "address": "  ",
        "lng": 0,
        "lat": 0,
        "name": "FAIRbund TPP03",
        "district": "Nord",
        "type": "Tagesmutter"
    },
    {
        "id": 227,
        "address": "  ",
        "lng": 0,
        "lat": 0,
        "name": "FAIRbund TPP05",
        "district": "Nord",
        "type": "Tagesmutter"
    },
    {
        "id": 228,
        "address": "  ",
        "lng": 0,
        "lat": 0,
        "name": "FAIRbund TPP06",
        "district": "Nord",
        "type": "Tagesmutter"
    },
    {
        "id": 229,
        "address": "  ",
        "lng": 0,
        "lat": 0,
        "name": "FAIRbund TPP07",
        "district": "Ost",
        "type": "Tagesmutter"
    },
    {
        "id": 230,
        "address": "  ",
        "lng": 0,
        "lat": 0,
        "name": "FAIRbund TPP09",
        "district": "Nord",
        "type": "Tagesmutter"
    },
    {
        "id": 231,
        "address": "  ",
        "lng": 0,
        "lat": 0,
        "name": "FJ-FRÖBEL-Lößnig",
        "district": "Süd",
        "type": "Tagesmutter"
    },
    {
        "id": 232,
        "address": "  ",
        "lng": 0,
        "lat": 0,
        "name": "int-bsw 83600",
        "district": "Süd",
        "type": "Tagesmutter"
    },
    {
        "id": 233,
        "address": "  ",
        "lng": 0,
        "lat": 0,
        "name": "int-bsw 83900",
        "district": "Ost",
        "type": "Tagesmutter"
    },
    {
        "id": 234,
        "address": "  ",
        "lng": 0,
        "lat": 0,
        "name": "KüchollKa",
        "district": "Nord",
        "type": "Tagesmutter"
    },
    {
        "id": 235,
        "address": "  ",
        "lng": 0,
        "lat": 0,
        "name": "MüllerMa",
        "district": "Nordost",
        "type": "Tagesmutter"
    },
    {
        "id": 236,
        "address": "  ",
        "lng": 0,
        "lat": 0,
        "name": "MuruchiGe",
        "district": "Südwest",
        "type": "Tagesmutter"
    },
    {
        "id": 237,
        "address": "  ",
        "lng": 0,
        "lat": 0,
        "name": "NieschAn",
        "district": "West",
        "type": "Tagesmutter"
    },
    {
        "id": 238,
        "address": "  ",
        "lng": 0,
        "lat": 0,
        "name": "OUTLAW-LIE",
        "district": "Ost",
        "type": "Tagesmutter"
    },
    {
        "id": 239,
        "address": "  ",
        "lng": 0,
        "lat": 0,
        "name": "OUTLAW-MER",
        "district": "Südwest",
        "type": "Tagesmutter"
    },
    {
        "id": 240,
        "address": "  ",
        "lng": 0,
        "lat": 0,
        "name": "OUTLAW-ORT",
        "district": "Nordwest",
        "type": "Tagesmutter"
    },
    {
        "id": 241,
        "address": "  ",
        "lng": 0,
        "lat": 0,
        "name": "OUTLAW-SCHM",
        "district": "Südwest",
        "type": "Tagesmutter"
    },
    {
        "id": 242,
        "address": "Demmeringstraße 157 ",
        "lng": 12.29548,
        "lat": 51.36031,
        "name": "OUTLAW-WÖC",
        "district": "Alt-West",
        "type": "Tagesmutter"
    },
    {
        "id": 243,
        "address": "  ",
        "lng": 0,
        "lat": 0,
        "name": "Rahn01",
        "district": "West",
        "type": "Tagesmutter"
    },
    {
        "id": 244,
        "address": "  ",
        "lng": 0,
        "lat": 0,
        "name": "Rahn02",
        "district": "Nordost",
        "type": "Tagesmutter"
    },
    {
        "id": 245,
        "address": "  ",
        "lng": 0,
        "lat": 0,
        "name": "Rahn03",
        "district": "Nord",
        "type": "Tagesmutter"
    },
    {
        "id": 246,
        "address": "  ",
        "lng": 0,
        "lat": 0,
        "name": "Rahn04",
        "district": "Nordwest",
        "type": "Tagesmutter"
    },
    {
        "id": 247,
        "address": "  ",
        "lng": 0,
        "lat": 0,
        "name": "Rahn05",
        "district": "Nord",
        "type": "Tagesmutter"
    },
    {
        "id": 248,
        "address": "  ",
        "lng": 0,
        "lat": 0,
        "name": "Rahn06",
        "district": "West",
        "type": "Tagesmutter"
    },
    {
        "id": 249,
        "address": "  ",
        "lng": 0,
        "lat": 0,
        "name": "Rahn07",
        "district": "Südost",
        "type": "Tagesmutter"
    },
    {
        "id": 250,
        "address": "  ",
        "lng": 0,
        "lat": 0,
        "name": "Rahn09",
        "district": "Südwest",
        "type": "Tagesmutter"
    },
    {
        "id": 251,
        "address": "  ",
        "lng": 0,
        "lat": 0,
        "name": "Rahn10",
        "district": "Südost",
        "type": "Tagesmutter"
    },
    {
        "id": 252,
        "address": "  ",
        "lng": 0,
        "lat": 0,
        "name": "SchakatJa",
        "district": "West",
        "type": "Tagesmutter"
    },
    {
        "id": 253,
        "address": "  ",
        "lng": 0,
        "lat": 0,
        "name": "SchwippsSa",
        "district": "Nord",
        "type": "Tagesmutter"
    },
    {
        "id": 254,
        "address": "  ",
        "lng": 0,
        "lat": 0,
        "name": "Tagesmützel_04",
        "district": "Südwest",
        "type": "Tagesmutter"
    },
    {
        "id": 255,
        "address": "  ",
        "lng": 0,
        "lat": 0,
        "name": "Tagesmützel_07",
        "district": "Nordost",
        "type": "Tagesmutter"
    },
    {
        "id": 256,
        "address": "  ",
        "lng": 0,
        "lat": 0,
        "name": "Tagesmützel_08",
        "district": "Ost",
        "type": "Tagesmutter"
    },
    {
        "id": 257,
        "address": "  ",
        "lng": 0,
        "lat": 0,
        "name": "Tagesmützel_13",
        "district": "Südwest",
        "type": "Tagesmutter"
    },
    {
        "id": 258,
        "address": "  ",
        "lng": 0,
        "lat": 0,
        "name": "Tagesmützel_16",
        "district": "Ost",
        "type": "Tagesmutter"
    },
    {
        "id": 259,
        "address": "  ",
        "lng": 0,
        "lat": 0,
        "name": "Tagesmützel_18",
        "district": "Nord",
        "type": "Tagesmutter"
    },
    {
        "id": 260,
        "address": "  ",
        "lng": 0,
        "lat": 0,
        "name": "Tagesmützel_21",
        "district": "Nord",
        "type": "Tagesmutter"
    },
    {
        "id": 261,
        "address": "  ",
        "lng": 0,
        "lat": 0,
        "name": "Tagesmützel_23",
        "district": "Südwest",
        "type": "Tagesmutter"
    },
    {
        "id": 262,
        "address": "  ",
        "lng": 0,
        "lat": 0,
        "name": "Tagesmützel_25",
        "district": "Nordost",
        "type": "Tagesmutter"
    },
    {
        "id": 263,
        "address": "  ",
        "lng": 0,
        "lat": 0,
        "name": "Tagesmützel_26",
        "district": "Nordwest",
        "type": "Tagesmutter"
    },
    {
        "id": 264,
        "address": "  ",
        "lng": 0,
        "lat": 0,
        "name": "VKKJ Nord13",
        "district": "Nord",
        "type": "Tagesmutter"
    },
    {
        "id": 265,
        "address": "  ",
        "lng": 0,
        "lat": 0,
        "name": "VKKJ Nord15",
        "district": "Nord",
        "type": "Tagesmutter"
    },
    {
        "id": 266,
        "address": "  ",
        "lng": 0,
        "lat": 0,
        "name": "VKKJ Nord29",
        "district": "Nord",
        "type": "Tagesmutter"
    },
    {
        "id": 267,
        "address": "  ",
        "lng": 0,
        "lat": 0,
        "name": "VKKJ Nordwest1",
        "district": "Nordwest",
        "type": "Tagesmutter"
    },
    {
        "id": 268,
        "address": "  ",
        "lng": 0,
        "lat": 0,
        "name": "VKKJ Nordwest13",
        "district": "Nordwest",
        "type": "Tagesmutter"
    },
    {
        "id": 269,
        "address": "  ",
        "lng": 0,
        "lat": 0,
        "name": "VKKJ Nordwest5",
        "district": "Nordwest",
        "type": "Tagesmutter"
    },
    {
        "id": 270,
        "address": "  ",
        "lng": 0,
        "lat": 0,
        "name": "VKKJ Südwest4",
        "district": "Südwest",
        "type": "Tagesmutter"
    }
]